[
  {
    "name": "Aire Networks",
    "address": "5.35.200.176",
    "country": "es",
    "location": "España",
    "position": ["26.5","","","43.4"]
  },
  {
    "name": "COLT",
    "address": "82.112.205.222",
    "country": "it",
    "location": "Italia",
    "position": ["25","","","48.5"]
  },
  {
    "name": "IONOS",
    "address": "217.160.70.42",
    "country": "de",
    "location": "Alemania",
    "position": ["19","","","47.5"]
  },
  {
    "name": "Asociación Gitoyen",
    "address": "80.67.169.40",
    "country": "fr",
    "location": "Francia",
    "position": ["22","","","45"]
  },
  {
    "name": "Gigahost",
    "address": "217.160.70.42",
    "country": "no",
    "location": "Noruega",
    "position": ["11","","","47"]
  },
  {
    "name": "Triolan",
    "address": "109.86.86.33",
    "country": "ua",
    "location": "Ucrania",
    "position": ["20","","","53.5"]
  },
  {
    "name": "TREX Regional Exchanges Oy",
    "address": "195.140.195.21",
    "country": "fi",
    "location": "Finlandia",
    "position": ["10","","","51"]
  },
  {
    "name": "OpenDNS",
    "address": "208.67.222.222",
    "country": "us",
    "location": "Estados Unidos",
    "position": ["28","","","15"]
  },
  {
    "name": "Cira",
    "address": "149.112.121.10",
    "country": "ca",
    "location": "Canadá",
    "position": ["13","","","15"]
  },
  {
    "name": "CSD Network Services",
    "address": "185.87.213.206",
    "country": "gb",
    "location": "Reino Unido",
    "position": ["18","","","44"]
  },
  {
    "name": "Marcatel",
    "address": "200.56.224.11",
    "country": "mx",
    "location": "México",
    "position": ["","","56","12.5"]
  },
  {
    "name": "Cogent",
    "address": "114.114.115.115",
    "country": "cn",
    "location": "China",
    "position": ["31","22","",""]
  },
  {
    "name": "NII",
    "address": "203.181.255.65",
    "country": "jp",
    "location": "Japón",
    "position": ["30","12","",""]
  },
  {
    "name": "Aussie Broadband",
    "address": "159.196.127.73",
    "country": "au",
    "location": "Australia",
    "position": ["","11","21",""]
  },
  {
    "name": "Indian Public DNS",
    "address": "36.50.50.50",
    "country": "in",
    "location": "India",
    "position": ["41","29","",""]
  },
  {
    "name": "Superonline Iletisim H.",
    "address": "92.45.23.168",
    "country": "tr",
    "location": "Turquía",
    "position": ["28","43","",""]
  },
  {
    "name": "Universidad de Mansoura",
    "address": "193.227.50.3",
    "country": "eg",
    "location": "Egipto",
    "position": ["37","44.5","",""]
  },
  {
    "name": "TENET (The UNINET Project)",
    "address": "196.21.186.253",
    "country": "za",
    "location": "Sudáfrica",
    "position": ["","46.5","17",""]
  },
  {
    "name": "Yandex",
    "address": "77.88.8.8",
    "country": "ru",
    "location": "Rusia",
    "position": ["11","","","67"]
  }
]
